{"type":"FeatureCollection","features":[{"type":"Feature","geometry":{"type":"Point","coordinates":[-76.180648,36.901892]},"properties":{"name":"Abbitz Measurement, Inc.","address":"1619D Diamond Springs Rd, Virginia Beach, VA, 23455","city":"Virginia Beach","industry":"Pressure Systems Instrumentation","category":"Private Industry"}},{"type":"Feature","geometry":{"type":"Point","coordinates":[-77.441054,38.882067]},"properties":{"name":"ABZ, Inc.","address":"4451 Brookfield Corporate Drive, Suite 101, Chantilly, VA, 20151","city":"Chantilly","industry":"Fluid Flow Consulting","category":"Private Industry"}},{"type":"Feature","geometry":{"type":"Point","coordinates":[-77.643655,37.446505]},"properties":{"name":"Action Technology, Inc.","address":"3121 E. Boundary Ct., Midlothian, VA, 23112","city":"Midlothian","industry":"Staffing, Consulting, Training","category":"Private Industry"}},{"type":"Feature","geometry":{"type":"Point","coordinates":[-76.394752,37.086312]},"properties":{"name":"Advex Corporation","address":"121 Floyd Thompson Drive, Hampton, VA, 23666","city":"Hampton","industry":"Machining & Fabrication","category":"Private Industry"}},{"type":"Feature","geometry":{"type":"Point","coordinates":[-79.173155,37.3714]},"properties":{"name":"Aerofin","address":"4621 Murry Place, P.O. Box 10819, Lynchburg, VA, 24502","city":"Lynchburg","industry":"Heat transfer applications supplier","category":"Private Industry"}},{"type":"Feature","geometry":{"type":"Point","coordinates":[-76.479366,37.180844]},"properties":{"name":"Affordable Fastener Supply Company","address":"312-G Old York Hampton Highway, Yorktown, Virginia, 23692","city":"Yorktown","industry":"Hardware Supply","category":"Private Industry"}},{"type":"Feature","geometry":{"type":"Point","coordinates":[-76.23218,36.794161]},"properties":{"name":"Air Systems, Inc.","address":"821 Juniper Crescent, Chesapeake, VA, 23320","city":"Chesapeake","industry":"Filtration, Air Systems","category":"Private Industry"}},{"type":"Feature","geometry":{"type":"Point","coordinates":[0,0]},"properties":{"name":"AMEC","address":"MULTIPLE LOCATIONS - SEE PDF","city":"List Cities Alphabetically","industry":"Engineering, Project Management, Consulting","category":"Private Industry"}},{"type":"Feature","geometry":{"type":"Point","coordinates":[-77.434395,38.898721]},"properties":{"name":"American Operations Corp.","address":"14030 Thunderbolt Place, Suite 700, Chantilly, VA, 20151","city":"Chantilly","industry":"Analysis, Consultancy, Specialist Services","category":"Private Industry"}},{"type":"Feature","geometry":{"type":"Point","coordinates":[0,0]},"properties":{"name":"Applied Technical Services","address":"MULTIPLE LOCATIONS - SEE PDF","city":"List Cities Alphabetically","industry":"Nondestructive Testing","category":"Private Industry"}},{"type":"Feature","geometry":{"type":"Point","coordinates":[-77.224035,38.912963]},"properties":{"name":"Ares Security Corporation","address":"8045 Leesburg Pike, Suite 400, Tysons Corner VA 22182","city":"Tysons Corner","industry":"Security Consulting & Applications","category":"Private Industry"}},{"type":"Feature","geometry":{"type":"Point","coordinates":[-77.18672,38.935202]},"properties":{"name":"Axiom Quality","address":"P.O. Box 328, McLean, VA, 22101","city":"McLean","industry":"Assurance Consulting & Analysis","category":"Private Industry"}},{"type":"Feature","geometry":{"type":"Point","coordinates":[-76.234007,36.862326]},"properties":{"name":"Bauer Compressors, Inc.","address":"1328 Azalea Garden Rd, Norfolk, VA 23502","city":"Norfolk","industry":"Compressors & High Pressure Systems","category":"Private Industry"}},{"type":"Feature","geometry":{"type":"Point","coordinates":[-77.357627,38.954563]},"properties":{"name":"Bechtel","address":"12011 Sunset Hills Rd, Reston, VA, 20190","city":"Reston","industry":"Engineering, Construction","category":"Private Industry"}},{"type":"Feature","geometry":{"type":"Point","coordinates":[-77.233266,38.880796]},"properties":{"name":"Beta Analytics International, Inc.","address":"2677 Prosperity Avenue, Suite 400, Fairfax, VA, 22031","city":"Fairfax","industry":"Access Control, Security, Fire Protection","category":"Private Industry"}},{"type":"Feature","geometry":{"type":"Point","coordinates":[-77.44834,38.90466]},"properties":{"name":"Boh Environmental, LLC","address":"14520 Avion Pkwy, Chantilly, VA 20151","city":"Chantilly","industry":"Container Systems","category":"Private Industry"}},{"type":"Feature","geometry":{"type":"Point","coordinates":[0,0]},"properties":{"name":"BWX Technologies, Inc.","address":"MULTIPLE LOCATIONS - SEE PDF","city":"List Cities Alphabetically","industry":"Nuclear design, engineering, manufacturing & services","category":"Private Industry"}},{"type":"Feature","geometry":{"type":"Point","coordinates":[0,0]},"properties":{"name":"Caliper Inc.","address":"MULTIPLE LOCATIONS - SEE PDF","city":"List Cities Alphabetically","industry":"Staffing & Recruitment","category":"Private Industry"}},{"type":"Feature","geometry":{"type":"Point","coordinates":[-76.382537,36.798643]},"properties":{"name":"CBG, LLC","address":"4013 Seaboard Court, Suite A-3, Portsmouth, VA, 23701","city":"Portsmouth","industry":"Metal Disintegration & Stud Removal","category":"Private Industry"}},{"type":"Feature","geometry":{"type":"Point","coordinates":[-77.680663,38.629068]},"properties":{"name":"Chemetrics, Inc.","address":"4295 Catlett Rd, Midland, VA, 22728","city":"Midland","industry":"Water Testing","category":"Private Industry"}},{"type":"Feature","geometry":{"type":"Point","coordinates":[-76.064968,36.829563]},"properties":{"name":"CMC","address":"502 Viking Drive, #102, Virginia Beach, VA, 23452","city":"Virginia Beach","industry":"Technical Staffing & Recruitment","category":"Private Industry"}},{"type":"Feature","geometry":{"type":"Point","coordinates":[-78.603139,38.051859]},"properties":{"name":"Coastal Network of Virginia, LLC","address":"600 Plantation Ct, Charlottesville, VA, 22903","city":"Charlottesville","industry":"Radiation Safety","category":"Private Industry"}},{"type":"Feature","geometry":{"type":"Point","coordinates":[-77.333704,38.951547]},"properties":{"name":"Communications-Applied Technology","address":"11250-14 Roger Bacon Drive, Reston, VA, 20190","city":"Reston","industry":"Communication Systems Design & Manufacturing","category":"Private Industry"}},{"type":"Feature","geometry":{"type":"Point","coordinates":[-76.375585,36.803184]},"properties":{"name":"CraneTech Solutions","address":"2030 Ponderosa St, Portsmouth, VA, 23701","city":"Portsmouth","industry":"Cranes & Lifting Equipment","category":"Private Industry"}},{"type":"Feature","geometry":{"type":"Point","coordinates":[-77.364563,38.950585]},"properties":{"name":"Dominion Engineering, Inc.","address":"12100 Sunrise Valley Drive, Suite 220, Reston, VA, 20191","city":"Reston","industry":"Technical Consulting Services","category":"Private Industry"}},{"type":"Feature","geometry":{"type":"Point","coordinates":[-76.96358,38.25457]},"properties":{"name":"Donley Technology","address":"P.O. Box 152, Colonial Beach, VA, 22443","city":"Colonial Beach","industry":"Environmental Health & Safety Information","category":"Private Industry"}},{"type":"Feature","geometry":{"type":"Point","coordinates":[-77.212036,38.922467]},"properties":{"name":"DynCorp International","address":"1700 Old Meadow Road, McLean, VA 22102","city":"McLean","industry":"Security Training & Consulting","category":"Private Industry"}},{"type":"Feature","geometry":{"type":"Point","coordinates":[-76.144047,36.842144]},"properties":{"name":"Eddy Current Technology, Inc.","address":"201A Horace Ave, Virginia Beach, VA, 23462","city":"Virginia Beach","industry":"Eddy Current Testing","category":"Private Industry"}},{"type":"Feature","geometry":{"type":"Point","coordinates":[-76.36777,36.783937]},"properties":{"name":"Electric Motor and Contracting Company","address":"3703 Cook Blvd, Chesapeake, VA, 23323","city":"Chesapeake","industry":"Motor repair, decontamination, refurbishment","category":"Private Industry"}},{"type":"Feature","geometry":{"type":"Point","coordinates":[-79.262022,37.349108]},"properties":{"name":"F.N. Anderson & Associates","address":"87 Braxton Lane, Forest, VA, 24551","city":"Forest","industry":"Engineering Analysis & Services","category":"Private Industry"}},{"type":"Feature","geometry":{"type":"Point","coordinates":[-77.885951,37.691936]},"properties":{"name":"Finite Matters, Ltd.","address":"3064 River Road West, Suite B, Goochland, VA, 23063","city":"Goochland","industry":"Management Solutions, Consulting, Software","category":"Private Industry"}},{"type":"Feature","geometry":{"type":"Point","coordinates":[-79.174573,37.3739]},"properties":{"name":"Flowserve","address":"5114 Woodall Rd, Lynchburg, VA 24502","city":"Lynchburg","industry":"Pumps, Valves, Tubing","category":"Private Industry"}},{"type":"Feature","geometry":{"type":"Point","coordinates":[-79.214401,37.408788]},"properties":{"name":"Framatome Inc.","address":"3315 Old Forest Road, Lynchburg, VA 24501","city":"Lynchburg","industry":"Engineering, Design, Manufacturing, Nuclear Services","category":"Private Industry"}},{"type":"Feature","geometry":{"type":"Point","coordinates":[-79.98692,37.222169]},"properties":{"name":"Fuji Electric America","address":"5115 Bernard Drive, Suite 102, Roanoke, VA, 24018","city":"Roanoke","industry":"Power Electronics Technology","category":"Private Industry"}},{"type":"Feature","geometry":{"type":"Point","coordinates":[-77.342969,37.354253]},"properties":{"name":"Honeywell","address":"690 HP Way, Chester, VA, 23836","city":"Chester","industry":"Safety Products, Eye + Face Protection","category":"Private Industry"}},{"type":"Feature","geometry":{"type":"Point","coordinates":[-76.437409,36.988213]},"properties":{"name":"Huntington Ingalls","address":"4101 Washington Ave., Newport News, VA, 23607","city":"Newport News","industry":"Shipbuilding, Nuclear Operations, Engineering Services","category":"Private Industry"}},{"type":"Feature","geometry":{"type":"Point","coordinates":[-77.264459,38.871806]},"properties":{"name":"ICF International, Inc.","address":"9300 Lee Hwy, Fairfax, VA, 22031","city":"Fairfax","industry":"IT Services, Research, & Consulting","category":"Private Industry"}},{"type":"Feature","geometry":{"type":"Point","coordinates":[-79.324991,37.389501]},"properties":{"name":"Innerspec Technologies","address":"2940 Perrowville Rd, Forest, VA 24551","city":"Forest","industry":"Engineering Consultant","category":"Private Industry"}},{"type":"Feature","geometry":{"type":"Point","coordinates":[-77.099113,38.885484]},"properties":{"name":"Interdevelopment, Inc.","address":"P.O. Box 15249, Arlington, VA, 22215","city":"Arlington","industry":"Management Consulting & Business Research","category":"Private Industry"}},{"type":"Feature","geometry":{"type":"Point","coordinates":[-77.458912,39.023039]},"properties":{"name":"Invensys Eurotherm","address":"44621 Guilford Drive, Ashburn, Virginia, 20147","city":"Ashburn","industry":"I&C sales, support, repair","category":"Private Industry"}},{"type":"Feature","geometry":{"type":"Point","coordinates":[-77.412536,38.95302]},"properties":{"name":"ITC Learning","address":"13515 Dulles Technology Drive, Herndon, VA, 22171","city":"Herndon","industry":"Industrial Skills Training","category":"Private Industry"}},{"type":"Feature","geometry":{"type":"Point","coordinates":[-77.324616,38.942361]},"properties":{"name":"JGW Group","address":"1801 Robert Fulton Drive, Suite 400, Reston, VA, 20191","city":"Reston","industry":"Business Development, Training, Consulting","category":"Private Industry"}},{"type":"Feature","geometry":{"type":"Point","coordinates":[-77.353976,37.508694]},"properties":{"name":"KSB, Inc.","address":"4415 Sarellen Rd, Henrico, VA, 23231","city":"Henrico","industry":"Pumps, valves, & systems supplier","category":"Private Industry"}},{"type":"Feature","geometry":{"type":"Point","coordinates":[-77.2255,38.926455]},"properties":{"name":"Lightbridge","address":"1600 Tysons Blvd, Suite 550, Tysons Corner, VA, 22102","city":"Tysons Corner","industry":"Fuel Cycle Consulting & Design","category":"Private Industry"}},{"type":"Feature","geometry":{"type":"Point","coordinates":[-79.174573,37.3739]},"properties":{"name":"Limitorque Corp.","address":"5114 Woodall Rd, Lynchburg, VA 24502","city":"Lynchburg","industry":"Actuators","category":"Private Industry"}},{"type":"Feature","geometry":{"type":"Point","coordinates":[-77.422187,37.696213]},"properties":{"name":"Mega-Tech Services, LLC","address":"11118 Manor View Drive, Mechanicsville, VA, 23116","city":"Mechanicsville","industry":"Tooling, Engineering Consulting","category":"Private Industry"}},{"type":"Feature","geometry":{"type":"Point","coordinates":[-80.376126,37.119138]},"properties":{"name":"MELD Manufacturing","address":"200 Technology Drive, Christiansburg, VA 24073","city":"Christiansburg","industry":"Manufacturing & Design","category":"Private Industry"}},{"type":"Feature","geometry":{"type":"Point","coordinates":[-77.069241,37.350344]},"properties":{"name":"Mitsubishi Nuclear Energy Systems","address":"1001 19th St N #2000, Arlington, VA","city":"Arlington","industry":"Vendor, Nuclear Services","category":"Private Industry"}},{"type":"Feature","geometry":{"type":"Point","coordinates":[-77.043107,38.804468]},"properties":{"name":"MPR Associates, Inc.","address":"320 King St, Alexandria, VA, 22314","city":"Alexandria","industry":"Engineering & Management Services","category":"Private Industry"}},{"type":"Feature","geometry":{"type":"Point","coordinates":[-79.233646,37.399101]},"properties":{"name":"Novatech USA","address":"220 Jefferson Ridge Parkway, Lynchburg, VA 24501","city":"Lynchburg","industry":"Engineering & Manufacturing Services","category":"Private Industry"}},{"type":"Feature","geometry":{"type":"Point","coordinates":[-79.141653,37.359607]},"properties":{"name":"Nuclear Energy Support International","address":"Lynchburg, VA 24501","city":"Lynchburg","industry":"Staffing & Recruitment","category":"Private Industry"}},{"type":"Feature","geometry":{"type":"Point","coordinates":[-77.466669,37.729672]},"properties":{"name":"OFI Custom Metal Fabrication","address":"10412 Design Road, Ashland, VA, 23005","city":"Ashland","industry":"Safety Related Fabrication","category":"Private Industry"}},{"type":"Feature","geometry":{"type":"Point","coordinates":[-77.142207,38.815081]},"properties":{"name":"Proxtronics, Dosimetry LLC","address":"85 S. Bragg St, Suite 400, Alexandria, VA, 22312","city":"Alexandria","industry":"Dosimetry Services","category":"Private Industry"}},{"type":"Feature","geometry":{"type":"Point","coordinates":[-77.283566,38.769357]},"properties":{"name":"Radiological Training Services","address":"6538 Koziara Drive Burke, VA, 22015","city":"Burke","industry":"Radiological Training","category":"Private Industry"}},{"type":"Feature","geometry":{"type":"Point","coordinates":[-78.880441,38.073704]},"properties":{"name":"Radium, Inc.","address":"463 Dinwiddie Ave, Waynesboro, VA, 22980","city":"Waynesboro","industry":"Steam Generator Services, Products","category":"Private Industry"}},{"type":"Feature","geometry":{"type":"Point","coordinates":[-79.252465,37.379724]},"properties":{"name":"River Technologies, LLC","address":"2107 Graves Mill Rd, Suite A, Forest, VA, 24551","city":"Forest","industry":"Radiological Decontamination","category":"Private Industry"}},{"type":"Feature","geometry":{"type":"Point","coordinates":[-79.98692,37.222169]},"properties":{"name":"Robatel Technologies, LLC","address":"5115 Bernard Drive, Suite 304, Roanoke, VA, 24018","city":"Roanoke","industry":"Engineering Services","category":"Private Industry"}},{"type":"Feature","geometry":{"type":"Point","coordinates":[-77.246632,38.926474]},"properties":{"name":"SC&A, Inc.","address":"1608 Spring Hill Road, Vienna, VA, 22182","city":"Vienna","industry":"Environmental & Energy Consulting","category":"Private Industry"}},{"type":"Feature","geometry":{"type":"Point","coordinates":[-76.219307,36.881887]},"properties":{"name":"Seaward Marine Services","address":"5409 Beamon Road Norfolk, VA 23513","city":"Norfolk","industry":"Cleaning & Inspection","category":"Private Industry"}},{"type":"Feature","geometry":{"type":"Point","coordinates":[-77.645224,39.085309]},"properties":{"name":"TalentHunter","address":"PO Box 275, Ashburn, VA, 20146","city":"Ashburn","industry":"Recruitment & Staffing","category":"Private Industry"}},{"type":"Feature","geometry":{"type":"Point","coordinates":[-77.204446,38.742377]},"properties":{"name":"TeamBest","address":"7643 Fullerton Rd, Springfield, VA 22153","city":"Springfield","industry":"Radiation Protection, Cancer Treatment","category":"Private Industry"}},{"type":"Feature","geometry":{"type":"Point","coordinates":[-76.378575,36.778257]},"properties":{"name":"Thermal Spray Solutions, Inc.","address":"1105 International Plaza, Suite B, Chesapeake, VA 23323","city":"Chesapeake","industry":"Thermal Spray Coatings","category":"Private Industry"}},{"type":"Feature","geometry":{"type":"Point","coordinates":[-77.596067,37.503941]},"properties":{"name":"Weidmuller Inc.","address":"821 Southlake Blvd., Richmond, VA, 23235","city":"Richmond","industry":"IT Products & Services","category":"Private Industry"}},{"type":"Feature","geometry":{"type":"Point","coordinates":[-77.440357,37.538142]},"properties":{"name":"Dominion Resources","address":"600 E Canal St, Richmond, VA 23219","city":"Richmond","industry":"Power Generation, Transmission, & Distribution company","category":"Utilities"}},{"type":"Feature","geometry":{"type":"Point","coordinates":[-77.584279,37.651931]},"properties":{"name":"Old Dominion Electric Cooperative","address":"4201 Dominion Blvd, Glen Allen, VA, 23060","city":"Glen Allen","industry":"Electricity Provider","category":"Utilities"}},{"type":"Feature","geometry":{"type":"Point","coordinates":[-76.487085,37.0973]},"properties":{"name":"Thomas Jefferson National Accelerator Facility","address":"12000 Jefferson Ave, Newport News, VA 23606","city":"Newport News","industry":"Nuclear Physics Research facility","category":"Federal Research Laboratories"}},{"type":"Feature","geometry":{"type":"Point","coordinates":[-76.305458,36.812752]},"properties":{"name":"US Navy (Norfolk Naval Shipyard)","address":"Norfolk Naval Shipyard, Portsmouth, VA, 23709","city":"Portsmouth","industry":"Manufacturing, R&D, & support for US Navy","category":"Federal Research Laboratories"}},{"type":"Feature","geometry":{"type":"Point","coordinates":[-76.492279,37.062084]},"properties":{"name":"Christopher Newport University (CNP)","address":"Christopher Newport University, 1 Avenue of the Arts, Newport News, VA 23606","city":"Newport News","industry":"Public Liberal Arts University offering Applied Physics (B.S.) & Computational & Applied Mathematics (B.S).","category":"Educational Institutions"}},{"type":"Feature","geometry":{"type":"Point","coordinates":[-77.310794,38.8344]},"properties":{"name":"George Mason University (GMU)","address":"4400 University Dr, Fairfax, VA 22030","city":"Fairfax","industry":"Public University offering Systems Engineering (B.S.) & Applied & Engineering Physics (M.S.).","category":"Educational Institutions"}},{"type":"Feature","geometry":{"type":"Point","coordinates":[-77.437255,39.0514]},"properties":{"name":"George Washington University","address":"45155 Research Place, Ashburn, VA 20147","city":"Ashburn","industry":"Private University offering Physics (B.S., M.S., Ph.D.) & Aerospace, Electrical, Mechanical, & Systems Engineering (B.S., M.Eng., M.S., Ph.D.).","category":"Educational Institutions"}},{"type":"Feature","geometry":{"type":"Point","coordinates":[-79.17901,37.350344]},"properties":{"name":"Liberty","address":"1971 University Blvd, Lynchburg, VA, 24515","city":"Lynchburg","industry":"Private University offering Mechanical Engineering (B.S., M.S., Ph.D.).","category":"Educational Institutions"}},{"type":"Feature","geometry":{"type":"Point","coordinates":[-78.510307,38.032837]},"properties":{"name":"University of Virginia (UVA)","address":"Thorton Hall, 351 McCormick Rd., Charlottesville, VA 22904-4203","city":"Charlottesville","industry":"Public Research University & Health System offering Physics (B.S., M.S., Ph.D.) & Aerospace, Electrical, Materials Science, Mechanical, & Systems Engineering (B.S., M.Eng., M.S., Ph.D.).","category":"Educational Institutions"}},{"type":"Feature","geometry":{"type":"Point","coordinates":[-77.451951,37.548657]},"properties":{"name":"Virginia Commonwealth University (VCU)","address":"821 West Franklin St, Richmond, VA, 23284","city":"Richmond","industry":"Public Research University & Health System offering Nuclear Engineering Concentration (B.S), Nuclear Engineering (M.S., Ph.D.), & Department of Radiation Sciences.","category":"Educational Institutions"}},{"type":"Feature","geometry":{"type":"Point","coordinates":[-77.565637,37.493075]},"properties":{"name":"Virginia Community College System (VCCS)","address":"300 Arboretum, Suite 200 Richmond, VA 23236","city":"Richmond","industry":"Community College Network offering Engineering (AS), Engineering Technology (AAS), & Nuclear Technology (AAR).","category":"Educational Institutions"}},{"type":"Feature","geometry":{"type":"Point","coordinates":[-80.434146,37.23085]},"properties":{"name":"Virginia Tech (Virginia Polytechnic Institute and State University)","address":"925 Prices Fork Road, Blacksburg, VA, 24061-0002","city":"Blacksburg","industry":"Public University & Research Institution offering Nuclear Engineering Program (Ph.D., MS, ME).","category":"Educational Institutions"}}]}